,Unnamed: 0,XID,Name,Kind,City,Rate,Lon,Lat
0,0,W148138980,Дом В. И. Смирнова,"['архитектура', 'историческая архитектура', 'интересные места', 'другие здания и сооружения']",Нижний Новгород,3h,43.975361,56.314426
1,1,W159088287,Памятник Ленину,"['исторические', 'монументы и памятники', 'городская среда', 'культурный', 'интересные места', 'скульптуры', 'памятники']",Нижний Новгород,3h,43.959465,56.326092
2,2,R2906507,Северная башня,"['башни', 'архитектура', 'интересные места', 'другие башни']",Нижний Новгород,3h,43.998028,56.328777
3,3,R2906504,Никольская башня,"['башни', 'архитектура', 'фортификационные сооружения', 'исторические', 'интересные места', 'другие башни', 'укрепленные башни']",Нижний Новгород,3h,44.001396,56.325672
4,4,W152110796,Дом архитектора,"['культурный', 'музеи', 'интересные места', 'другие музеи']",Нижний Новгород,3h,44.009949,56.329483
5,5,R4238217,Нижегородский государственный академический театр драмы им. М. Горького,"['культурный', 'театры и развлечения', 'интересные места', 'музыкальные места']",Нижний Новгород,3h,44.001335,56.324169
6,6,N6629818520,Нижегородский кремль,"['фортификационные сооружения', 'исторические', 'исторические места', 'культурный', 'музеи', 'интересные места', 'исторические районы', 'исторические музеи', 'кремли', 'архитектура', 'историческая архитектура']",Нижний Новгород,3h,44.002522,56.328667
7,7,R13028362,Нижегородская соборная мечеть,"['религия', 'мечети', 'интересные места']",Нижний Новгород,3h,44.037556,56.323444
8,8,W147129127,Домик Каширина,"['культурный', 'музеи', 'интересные места', 'другие музеи']",Нижний Новгород,3h,43.990692,56.323921
9,9,R2302969,Автозаводский парк культуры и отдыха,"['городская среда', 'сады и парки', 'культурный', 'интересные места']",Нижний Новгород,3h,43.854343,56.23904
10,10,W159080177,Собор Александра Невского,"['религия', 'соборы', 'церкви', 'интересные места', 'восточные ортодоксальные церкви']",Нижний Новгород,3h,43.971439,56.333679
11,11,R2906508,Собор Архангела Михаила,"['религия', 'соборы', 'церкви', 'интересные места', 'восточные ортодоксальные церкви']",Нижний Новгород,3h,44.001873,56.328293
12,12,R4356826,Церковь в честь Рождества Богородицы,"['религия', 'церкви', 'интересные места', 'другие церкви']",Нижний Новгород,3h,43.755871,56.209595
13,13,R2343568,Спасо-преображенская церковь,"['религия', 'церкви', 'интересные места', 'другие церкви']",Нижний Новгород,3h,43.933346,56.256714
14,14,N5141071786,Дворец вице-губернатора,"['архитектура', 'историческая архитектура', 'интересные места', 'другие здания и сооружения']",Нижний Новгород,3h,44.003147,56.327217
15,15,W35979423,Парк имени Кулибина,"['городская среда', 'сады и парки', 'культурный', 'интересные места']",Нижний Новгород,3h,44.008858,56.315018
16,16,R2013332,Церковь Воскресения Христова,"['религия', 'церкви', 'интересные места', 'восточные ортодоксальные церкви']",Нижний Новгород,3h,43.978607,56.314247
17,17,W147129128,Храм Сергия Радонежского,"['религия', 'церкви', 'интересные места', 'восточные ортодоксальные церкви']",Нижний Новгород,3h,43.987236,56.323441
18,18,R5393060,Храм святителей Московских,"['религия', 'церкви', 'интересные места', 'другие церкви']",Нижний Новгород,3h,43.997238,56.312874
19,19,N6765906237,Скоба,"['архитектура', 'историческая архитектура', 'интересные места', 'рестораны', 'продукты питания', 'туристические объекты', 'другие здания и сооружения', 'площади']",Нижний Новгород,3h,43.995026,56.329548
20,20,N4320825061,Дмитриевская башня,"['башни', 'архитектура', 'фортификационные сооружения', 'исторические', 'культурный', 'музеи', 'интересные места', 'другие музеи', 'другие башни', 'укрепленные башни']",Нижний Новгород,3h,44.005676,56.327045
21,21,R9649962,Лицей № 82,"['архитектура', 'историческая архитектура', 'интересные места', 'другие здания и сооружения', 'школы', 'образование']",Нижний Новгород,3h,43.864075,56.349937
22,22,R2906510,Часовая башня,"['башни', 'архитектура', 'интересные места', 'другие башни']",Нижний Новгород,3h,43.998898,56.328785
23,23,N2295063219,Мемориал Горьковчане фронту,"['исторические', 'монументы и памятники', 'места захоронений', 'интересные места', 'другие места захоронения', 'памятники']",Нижний Новгород,3h,44.005363,56.327061
24,24,R2917120,Нижегородский государственный художественный музей,"['национальные музеи', 'культурный', 'музеи', 'интересные места', 'художественные галереи']",Нижний Новгород,3h,44.006405,56.329548
25,25,R3022763,Рождественская церковь,"['религия', 'церкви', 'интересные места', 'восточные ортодоксальные церкви']",Нижний Новгород,3h,43.984966,56.327251
26,26,W151548233,Музей-квартира А.М. Горького,"['биографические музеи', 'культурный', 'музеи', 'интересные места', 'художественные галереи']",Нижний Новгород,3h,44.018635,56.322784
27,27,R1992689,Благовещенский монастырь,"['религия', 'монастыри', 'интересные места']",Нижний Новгород,3h,43.976791,56.323032
28,28,W147551273,Благовещенский собор,"['религия', 'соборы', 'монастыри', 'интересные места']",Нижний Новгород,3h,43.976471,56.322552
29,29,W152696709,Нижегородское речное училище,"['архитектура', 'историческая архитектура', 'интересные места', 'другие здания и сооружения', 'образование']",Нижний Новгород,3h,44.015591,56.326916
30,30,W28501972,Парк имени А.С. Пушкина,"['городская среда', 'сады и парки', 'культурный', 'интересные места']",Нижний Новгород,3h,43.997265,56.309052
31,31,R2906509,Тайницкая башня,"['башни', 'архитектура', 'фортификационные сооружения', 'исторические', 'интересные места', 'другие башни', 'укрепленные башни']",Нижний Новгород,3h,43.997246,56.327576
32,32,R2059374,Монумент героям Волжской военной флотилии,"['исторические', 'монументы и памятники', 'интересные места', 'памятники']",Нижний Новгород,3h,43.988407,56.329079
33,33,N5141071785,Гарнизонная казарма,"['архитектура', 'историческая архитектура', 'интересные места', 'другие здания и сооружения']",Нижний Новгород,3h,44.004299,56.327614
34,34,N1056966401,Памятник жертвам и мученикам революции 1905 года,"['исторические', 'монументы и памятники', 'интересные места', 'памятники']",Нижний Новгород,3h,44.01601,56.316841
35,35,W108727791,Домик Петра I,"['архитектура', 'историческая архитектура', 'интересные места', 'другие здания и сооружения']",Нижний Новгород,3h,43.994991,56.325508
36,36,R3368610,Государственный центральный банк,"['архитектура', 'историческая архитектура', 'интересные места', 'банки', 'банк', 'туристические объекты', 'другие здания и сооружения']",Нижний Новгород,3h,43.998787,56.32003
37,37,N2295063253,Экспозиция «Подвиг народного единства»,"['башни', 'архитектура', 'культурный', 'музеи', 'интересные места', 'другие музеи', 'другие башни']",Нижний Новгород,3h,43.999737,56.329956
38,38,W152110807,Усадьба Рукавишниковых,"['биографические музеи', 'архитектура', 'историческая архитектура', 'культурный', 'музеи', 'интересные места', 'усадьбы']",Нижний Новгород,3h,44.016083,56.329319
39,39,W151905928,Театр оперы и балета,"['культурный', 'театры и развлечения', 'интересные места', 'музыкальные места', 'оперные театры']",Нижний Новгород,3h,44.017212,56.315525
40,40,W219812603,Обелиск Минину и Пожарскому,"['исторические', 'монументы и памятники', 'городская среда', 'культурный', 'интересные места', 'скульптуры', 'памятники']",Нижний Новгород,3h,44.00243,56.32901
41,41,W52464978,Церковь Знамения Божией Матери и святых Жен-Мироносиц,"['религия', 'церкви', 'интересные места', 'восточные ортодоксальные церкви']",Нижний Новгород,3h,43.995018,56.324314
42,42,R2323263,Ивановская башня,"['башни', 'архитектура', 'фортификационные сооружения', 'исторические', 'культурный', 'музеи', 'интересные места', 'другие музеи', 'другие башни', 'укрепленные башни']",Нижний Новгород,3h,43.999634,56.329887
43,43,W151905925,Нижегородский острог,"['культурный', 'музеи', 'интересные места', 'музеи науки и технологии', 'исторические музеи', 'другие технологические музеи']",Нижний Новгород,3h,44.017006,56.317223
44,44,R546053,Сормовский парк,"['городская среда', 'сады и парки', 'культурный', 'интересные места']",Нижний Новгород,3h,43.856071,56.338352
45,45,R2990812,Блиновский пассаж,"['архитектура', 'историческая архитектура', 'интересные места', 'другие здания и сооружения']",Нижний Новгород,3h,43.988136,56.32814
46,46,W151548188,Шахматный дом (Игорный дом А.И. Троицкого),"['архитектура', 'историческая архитектура', 'интересные места', 'другие здания и сооружения']",Нижний Новгород,3h,44.011173,56.325016
47,47,N585136663,Центр культуры Рекорд,"['культурный', 'кинотеатры', 'театры и развлечения', 'интересные места']",Нижний Новгород,3h,44.00481,56.323887
48,48,W151302806,Нижегородская государственная консерватория им. М.И. Глинки,"['архитектура', 'историческая архитектура', 'интересные места', 'другие здания и сооружения', 'образование', 'музыкальные места']",Нижний Новгород,3h,44.012947,56.327446
49,49,R2888456,Церковь Рождества Иоана Предтечи,"['религия', 'церкви', 'интересные места', 'другие церкви']",Нижний Новгород,3h,43.998135,56.329777
50,50,R2906501,Коромыслова башня,"['башни', 'архитектура', 'интересные места', 'другие башни']",Нижний Новгород,3h,43.998951,56.325813
51,51,W147599580,Усадьба Добролюбовых,"['культурный', 'музеи', 'интересные места', 'другие музеи', 'биографические музеи', 'исторические музеи']",Нижний Новгород,3h,43.99844,56.322536
52,52,R2906496,Борисоглебская башня,"['башни', 'архитектура', 'фортификационные сооружения', 'исторические', 'интересные места', 'другие башни', 'укрепленные башни']",Нижний Новгород,3h,44.006256,56.330738
53,53,W152110787,Дом Сироткина,"['культурный', 'музеи', 'интересные места', 'другие музеи']",Нижний Новгород,3h,44.012966,56.329269
54,54,W170361331,Спасский староярмарочный кафедральный собор,"['религия', 'соборы', 'церкви', 'интересные места', 'восточные ортодоксальные церкви']",Нижний Новгород,3h,43.953976,56.331402
55,55,R2906497,Георгиевская башня,"['башни', 'архитектура', 'фортификационные сооружения', 'исторические', 'интересные места', 'другие башни', 'укрепленные башни']",Нижний Новгород,3h,44.008911,56.330097
56,56,R2767108,Стадион Локомотив,"['спорт', 'архитектура', 'историческая архитектура', 'интересные места', 'стадионы', 'другие здания и сооружения']",Нижний Новгород,3h,43.929649,56.309647
57,57,R4864923,Крестовоздвиженский монастырь,"['религия', 'монастыри', 'интересные места']",Нижний Новгород,3h,43.981781,56.307186
58,58,W147551305,Доходный дом купчихи П. Е. Кубаревой,"['архитектура', 'историческая архитектура', 'интересные места', 'другие здания и сооружения']",Нижний Новгород,3h,43.977024,56.324112
59,59,R555801,Чкаловская лестница,"['исторические', 'монументы и памятники', 'интересные места', 'памятники']",Нижний Новгород,3h,44.009453,56.330681
60,60,R2917119,Администрация Нижнего Новгорода (Дом Советов),"['архитектура', 'историческая архитектура', 'интересные места', 'другие здания и сооружения']",Нижний Новгород,3h,44.005398,56.329159
61,61,R2906495,Белая башня,"['башни', 'архитектура', 'интересные места', 'другие башни']",Нижний Новгород,3h,44.001812,56.330524
62,62,R2906505,Пороховая башня,"['башни', 'архитектура', 'интересные места', 'другие башни']",Нижний Новгород,3h,44.007252,56.328491
63,63,W151905929,Церковь во имя Всемилостивейшего Спаса,"['религия', 'церкви', 'интересные места', 'восточные ортодоксальные церкви']",Нижний Новгород,3h,44.024475,56.31905
64,64,R2174006,Храм Живоначальной Троицы,"['религия', 'церкви', 'интересные места', 'восточные ортодоксальные церкви']",Нижний Новгород,3h,44.046577,56.308556
65,65,W164712659,Церковь в честь Преображения Господня,"['религия', 'другие храмы', 'интересные места']",Нижний Новгород,3h,44.072117,56.318909
66,66,N1808680328,Музей науки «Нижегородская радиолаборатория»,"['культурный', 'музеи', 'научные музеи', 'интересные места']",Нижний Новгород,3h,44.013882,56.329411
67,67,W149417079,Крестовоздвиженский собор,"['религия', 'монастыри', 'интересные места']",Нижний Новгород,3h,43.982094,56.307251
68,68,W918325991,Губернаторский сад,"['городская среда', 'сады и парки', 'культурный', 'интересные места']",Нижний Новгород,3h,44.005272,56.329803
69,69,N262652256,Памятник М. Горькому,"['исторические', 'монументы и памятники', 'городская среда', 'культурный', 'интересные места', 'скульптуры', 'памятники']",Нижний Новгород,3h,43.990711,56.31348
70,70,R2906500,Кладовая башня,"['башни', 'архитектура', 'фортификационные сооружения', 'исторические', 'интересные места', 'другие башни', 'укрепленные башни']",Нижний Новгород,3h,44.003525,56.326359
71,71,W85787924,Спасо-преображенский собор,"['религия', 'церкви', 'интересные места', 'другие церкви']",Нижний Новгород,3h,43.872032,56.349922
72,72,W151905901,Церковь во имя Всемилостивейшего Спаса,"['религия', 'церкви', 'интересные места', 'восточные ортодоксальные церкви']",Нижний Новгород,3h,44.024479,56.319065
73,73,R2969244,Церковь во имя Святого Пророка Божия Илии,"['религия', 'церкви', 'интересные места', 'восточные ортодоксальные церкви']",Нижний Новгород,3h,43.993713,56.328205
74,74,R2323262,Зачатьевская башня,"['башни', 'архитектура', 'фортификационные сооружения', 'исторические', 'культурный', 'музеи', 'интересные места', 'другие музеи', 'другие башни', 'укрепленные башни']",Нижний Новгород,3h,44.003357,56.33083
75,75,Q97999957,Здание Удельной конторы,"['историческая архитектура', 'архитектура', 'интересные места', 'другие здания и сооружения']",Нижний Новгород,3h,44.021175,56.325153
76,76,Q3860437,Печёрский Вознесенский монастырь,"['религия', 'монастыри', 'интересные места']",Нижний Новгород,3h,44.049721,56.322777
77,77,Q16715547,Церковь Александра Невского в Сормово,"['религия', 'церкви', 'интересные места', 'восточные ортодоксальные церкви']",Нижний Новгород,3h,43.868862,56.357773
78,78,Q77756790,Усадьба Вяхиревых,"['историческая архитектура', 'архитектура', 'интересные места', 'другие здания и сооружения']",Нижний Новгород,3h,43.974319,56.321663
79,79,Q78114479,Дом Ермолаевых — П. Парфёнова,"['историческая архитектура', 'архитектура', 'интересные места', 'другие здания и сооружения']",Нижний Новгород,3h,43.987328,56.315933
80,80,Q83495700,Доходный дом Б. Н. Юсупова,"['историческая архитектура', 'архитектура', 'интересные места', 'другие здания и сооружения']",Нижний Новгород,3h,44.000031,56.322086
81,81,Q83560635,Торговый флигель О. Н. Каменевой,"['историческая архитектура', 'архитектура', 'интересные места', 'другие здания и сооружения']",Нижний Новгород,3h,43.995853,56.317665
82,82,Q84172585,Дом Е. Трушенинниковой,"['историческая архитектура', 'архитектура', 'интересные места', 'другие здания и сооружения']",Нижний Новгород,3h,44.010155,56.329014
83,83,Q84340772,Дом Виноградовых,"['историческая архитектура', 'архитектура', 'интересные места', 'другие здания и сооружения']",Нижний Новгород,3h,43.987938,56.323109
84,84,Q84767074,Дом М. В. Медведева,"['историческая архитектура', 'архитектура', 'интересные места', 'другие здания и сооружения']",Нижний Новгород,3h,43.976734,56.323944
85,85,Q86683423,Здание Волжско-Камского банка,"['историческая архитектура', 'архитектура', 'интересные места', 'банк', 'банки', 'туристические объекты', 'другие здания и сооружения']",Нижний Новгород,3h,43.991901,56.329498
86,86,Q86684971,Дом И. Н. Соболева,"['историческая архитектура', 'архитектура', 'интересные места', 'другие здания и сооружения']",Нижний Новгород,3h,43.98222,56.326599
87,87,Q88379274,Дом А. И. Фролова,"['историческая архитектура', 'архитектура', 'интересные места', 'другие здания и сооружения']",Нижний Новгород,3h,44.004597,56.321331
88,88,Q96240614,Казанская церковь (Кстово),"['религия', 'церкви', 'интересные места', 'восточные ортодоксальные церкви']",Нижний Новгород,3h,44.172501,56.181389
89,89,Q96337173,Усадьба Е. И. Богоявленской,"['архитектура', 'историческая архитектура', 'интересные места', 'усадьбы']",Нижний Новгород,3h,44.027401,56.323872
90,90,Q96591455,Усадьба Киршбаумов,"['архитектура', 'историческая архитектура', 'интересные места', 'усадьбы']",Нижний Новгород,3h,44.019402,56.323601
91,91,Q97163612,Дом А. К. Фомина,"['историческая архитектура', 'архитектура', 'интересные места', 'другие здания и сооружения']",Нижний Новгород,3h,44.011063,56.328957
92,92,Q4165515,Дом культуры ГУВД,"['историческая архитектура', 'архитектура', 'интересные места', 'другие здания и сооружения']",Нижний Новгород,3h,43.988495,56.316048
93,93,W38411380,Спортивный комплекс Динамо,"['спорт', 'архитектура', 'историческая архитектура', 'интересные места', 'стадионы', 'другие здания и сооружения']",Екатеринбург,3h,60.600349,56.845398
94,94,N2885181131,Дом обороны,"['архитектура', 'историческая архитектура', 'интересные места', 'другие здания и сооружения']",Екатеринбург,3h,60.601315,56.834167
95,95,N1930476141,Здание городской электростанции «Луч»,"['архитектура', 'историческая архитектура', 'интересные места', 'другие здания и сооружения']",Екатеринбург,3h,60.60743,56.833691
96,96,N3002726097,Дом Г.Н. Скрябина,"['архитектура', 'историческая архитектура', 'интересные места', 'другие здания и сооружения']",Екатеринбург,3h,60.607075,56.834225
97,97,N2475691784,Музей Литературная жизнь Урала XX века,"['культурный', 'музеи', 'интересные места', 'другие музеи', 'детские музеи']",Екатеринбург,3h,60.606716,56.842705
98,98,W55235295,Дом-музей Бажова,"['биографические музеи', 'культурный', 'музеи', 'детские музеи', 'интересные места']",Екатеринбург,3h,60.613415,56.818394
99,99,N181286204,Театр кукол,"['кукольные театры', 'культурный', 'кинотеатры', 'театры и развлечения', 'интересные места']",Екатеринбург,3h,60.610809,56.839527
100,100,W35090291,Харитоновский сад,"['городская среда', 'сады и парки', 'культурный', 'интересные места']",Екатеринбург,3h,60.613251,56.846531
101,101,W46993188,Храм в честь Вознесения Господня,"['религия', 'церкви', 'интересные места', 'восточные ортодоксальные церкви']",Екатеринбург,3h,60.612843,56.844761
102,102,W43554808,Суворовское училище,"['архитектура', 'историческая архитектура', 'интересные места', 'другие здания и сооружения']",Екатеринбург,3h,60.647209,56.845078
103,103,W46866652,Свято-Троицкий Кафедральный собор,"['религия', 'соборы', 'церкви', 'интересные места', 'восточные ортодоксальные церкви']",Екатеринбург,3h,60.614399,56.827347
104,104,N6511782886,Дом-музей Д. Н. Мамина-Сибиряка,"['биографические музеи', 'культурный', 'музеи', 'детские музеи', 'интересные места', 'художественные галереи']",Екатеринбург,3h,60.607212,56.84132
105,105,W59804414,Художественный Музей Эрнста Неизвестного,"['культурный', 'музеи', 'интересные места', 'художественные галереи']",Екатеринбург,3h,60.603756,56.83168
106,106,W948556954,Памятник Серго Орджоникидзе,"['исторические', 'монументы и памятники', 'интересные места', 'памятники']",Екатеринбург,3h,60.592449,56.885479
107,107,N1779665538,Памятник Н. И. Кузнецову,"['исторические', 'монументы и памятники', 'интересные места', 'памятники']",Екатеринбург,3h,60.577671,56.890465
108,108,W166552564,Успенский собор на ВИЗе,"['религия', 'церкви', 'интересные места', 'восточные ортодоксальные церкви']",Екатеринбург,3h,60.556461,56.839237
109,109,W922392676,Царский мост,"['мосты', 'архитектура', 'интересные места', 'другие мосты']",Екатеринбург,3h,60.613163,56.823517
110,110,N5755762950,Дом печати,"['архитектура', 'историческая архитектура', 'интересные места', 'другие здания и сооружения']",Екатеринбург,3h,60.61459,56.839989
111,111,N457304363,Музей изобразительных искусств,"['культурный', 'музеи', 'интересные места', 'художественные галереи']",Екатеринбург,3h,60.603241,56.835182
112,112,W50837336,Александро-Невский собор,"['религия', 'церкви', 'интересные места', 'восточные ортодоксальные церкви']",Екатеринбург,3h,60.598534,56.822884
113,113,W947205778,Здание бывшей гостиницы Мадрид,"['архитектура', 'историческая архитектура', 'жилье', 'интересные места', 'другие отели', 'другие здания и сооружения']",Екатеринбург,3h,60.588634,56.886154
114,114,W313780001,Уральский государственный медицинский университет,"['архитектура', 'историческая архитектура', 'интересные места', 'другие здания и сооружения', 'образование', 'университеты']",Екатеринбург,3h,60.576317,56.832996
115,115,W587989335,Центральный стадион,"['спорт', 'архитектура', 'историческая архитектура', 'интересные места', 'стадионы', 'другие здания и сооружения']",Екатеринбург,3h,60.573956,56.832283
116,116,R152269,Уральская государственная консерватория,"['архитектура', 'историческая архитектура', 'интересные места', 'другие здания и сооружения', 'образование', 'музыкальные места']",Екатеринбург,3h,60.599995,56.837444
117,117,N3002726091,Фотографический музей «Дом Метенкова»,"['культурный', 'музеи', 'интересные места', 'другие музеи']",Екатеринбург,3h,60.610767,56.841969
118,118,W128158539,Преображенская церковь на Уктусе,"['религия', 'церкви', 'интересные места', 'восточные ортодоксальные церкви']",Екатеринбург,3h,60.649147,56.780872
119,119,N964623543,Уральский геологический музей,"['культурный', 'музеи', 'научные музеи', 'интересные места']",Екатеринбург,3h,60.59547,56.826492
120,120,W62228491,Гимназия № 9,"['архитектура', 'историческая архитектура', 'интересные места', 'другие здания и сооружения', 'школы', 'образование']",Екатеринбург,3h,60.600273,56.838516
121,121,W52170650,Второй Дом Советов,"['другие', 'неклассифицированные объекты', 'интересные места', 'исторические объекты']",Екатеринбург,3h,60.59655,56.840122
122,122,N6962835349,Водонапорная башня,"['культурный', 'музеи', 'интересные места', 'другие музеи']",Екатеринбург,3h,60.605469,56.837891
123,123,W18077882,Театр оперы и балета,"['культурный', 'театры и развлечения', 'интересные места', 'оперные театры']",Екатеринбург,3h,60.616631,56.838799
124,124,N454056918,Памятник Малышеву,"['исторические', 'монументы и памятники', 'городская среда', 'культурный', 'интересные места', 'скульптуры', 'памятники']",Екатеринбург,3h,60.604321,56.834213
125,125,N454103127,Памятник Я.М. Свердлову,"['исторические', 'монументы и памятники', 'городская среда', 'культурный', 'интересные места', 'скульптуры', 'памятники']",Екатеринбург,3h,60.616417,56.839813
126,126,N474950570,Памятник Комсомолу Урала,"['исторические', 'монументы и памятники', 'городская среда', 'культурный', 'интересные места', 'скульптуры', 'памятники']",Екатеринбург,3h,60.610554,56.844635
127,127,N192224751,Памятник Ленину,"['исторические', 'монументы и памятники', 'городская среда', 'культурный', 'интересные места', 'скульптуры', 'памятники']",Екатеринбург,3h,60.596291,56.83786
128,128,N504394251,Шарташские каменные палатки,"['смотровые площадки', 'другие', 'горные вершины', 'скальные образования', 'природные монументы', 'геологические образования', 'природные', 'интересные места', 'природные заповедники']",Екатеринбург,3h,60.678642,56.84304
129,129,N3002726100,Дом контор,"['архитектура', 'историческая архитектура', 'интересные места', 'другие здания и сооружения']",Екатеринбург,3h,60.599091,56.83392
130,130,N210073292,Александро-Невская часовня,"['религия', 'церкви', 'интересные места', 'другие церкви']",Екатеринбург,3h,60.602776,56.828709
131,131,N3002726092,Музей истории Екатеринбурга,"['культурный', 'музеи', 'интересные места', 'другие музеи']",Екатеринбург,3h,60.611122,56.840714
132,132,N6408389385,Городок Чекистов,"['архитектура', 'историческая архитектура', 'интересные места', 'другие здания и сооружения']",Екатеринбург,3h,60.620918,56.840729
133,133,W127712171,Иоанно-Предтеченский Кафедральный собор,"['религия', 'соборы', 'церкви', 'интересные места', 'восточные ортодоксальные церкви']",Екатеринбург,3h,60.574745,56.829426
134,134,N694080110,Уральский государственный колледж имени И.И. Ползунова,"['архитектура', 'историческая архитектура', 'интересные места', 'другие здания и сооружения', 'образование']",Екатеринбург,3h,60.625992,56.823845
135,135,W47807305,Площадь 1905 года,"['городская среда', 'культурный', 'интересные места', 'площади']",Екатеринбург,3h,60.597221,56.837864
136,136,N2324423104,Музей кукол и детской книги «Страна чудес»,"['культурный', 'музеи', 'детские музеи', 'интересные места']",Екатеринбург,3h,60.606445,56.84338
137,137,W69841318,"Музей истории, науки и техники Свердловской железной дороги","['железнодорожные станции', 'промышленные объекты', 'культурный', 'музеи', 'интересные места', 'другие музеи']",Екатеринбург,3h,60.600773,56.858772
138,138,N5402950542,Свердловское художественное училище им. И. Д. Шадра,"['архитектура', 'историческая архитектура', 'интересные места', 'другие здания и сооружения', 'образование']",Екатеринбург,3h,60.610859,56.835098
139,139,N415531606,Дом Севастьянова,"['архитектура', 'историческая архитектура', 'интересные места', 'другие здания и сооружения']",Екатеринбург,3h,60.605457,56.83876
140,140,N763386009,Свердловская государственная академическая филармония,"['театры и развлечения', 'концертные залы', 'культурный', 'интересные места', 'музыкальные места']",Екатеринбург,3h,60.610157,56.842163
141,141,N802262331,Усадьба Расторгуева-Харитонова,"['архитектура', 'историческая архитектура', 'интересные места', 'усадьбы']",Екатеринбург,3h,60.609535,56.844151
142,142,W64238516,Уральский политехнический колледж,"['архитектура', 'историческая архитектура', 'интересные места', 'другие здания и сооружения', 'образование']",Екатеринбург,3h,60.634628,56.842449
143,143,N2587522630,Музей плодового садоводства Среднего Урала,"['культурный', 'музеи', 'интересные места', 'исторические музеи']",Екатеринбург,3h,60.586826,56.842674
144,144,R3784162,Дом-музей Ф.М. Решетникова,"['культурный', 'музеи', 'детские музеи', 'интересные места', 'художественные галереи']",Екатеринбург,3h,60.606873,56.842419
145,145,W922392677,Каменный мост,"['мосты', 'архитектура', 'интересные места', 'другие мосты']",Екатеринбург,3h,60.604752,56.834576
146,146,N898963079,Храм-на-Крови,"['религия', 'церкви', 'интересные места', 'восточные ортодоксальные церкви']",Екатеринбург,3h,60.607666,56.844257
147,147,W150512875,Белая башня,"['архитектура', 'историческая архитектура', 'интересные места', 'другие здания и сооружения']",Екатеринбург,3h,60.572338,56.893166
148,148,N459436046,Памятник Добровольцам-танкистам,"['исторические', 'монументы и памятники', 'места захоронений', 'интересные места', 'военные памятные места', 'памятники']",Екатеринбург,3h,60.606125,56.857285
149,149,R3464822,Ново-Тихвинский монастырь,"['религия', 'монастыри', 'интересные места']",Екатеринбург,3h,60.598354,56.823097
150,150,N533609312,Дом В.И. Чувильдина,"['архитектура', 'историческая архитектура', 'интересные места', 'другие здания и сооружения']",Екатеринбург,3h,60.607689,56.832268
151,151,N474949599,Свердловский областной краеведческий музей,"['научные музеи', 'культурный', 'музеи', 'интересные места', 'исторические музеи', 'местные музеи', 'художественные галереи']",Екатеринбург,3h,60.602917,56.834114
152,152,N474946827,Театр музыкальной комедии,"['культурный', 'театры и развлечения', 'интересные места', 'музыкальные места']",Екатеринбург,3h,60.611748,56.839645
153,153,W52170640,Дом Актёра,"['архитектура', 'историческая архитектура', 'театры и развлечения', 'культурный', 'интересные места', 'усадьбы', 'другие театры']",Екатеринбург,3h,60.59795,56.838634
154,154,W59804593,Доходный дом купца Чувильдина,"['архитектура', 'историческая архитектура', 'интересные места', 'другие здания и сооружения']",Екатеринбург,3h,60.607727,56.832176
155,155,W38753316,улица Февральской Революции,"['культурный', 'городская среда', 'интересные места', 'площади']",Екатеринбург,3h,60.588932,56.842964
156,156,W34939465,улица Чернышевского,"['культурный', 'городская среда', 'интересные места', 'площади']",Екатеринбург,3h,60.601933,56.832638
157,157,W759609793,улица Добролюбова,"['культурный', 'городская среда', 'интересные места', 'площади']",Екатеринбург,3h,60.603771,56.832561
158,158,Q107585439,Мемориал памяти Уральских коммунаров,"['исторические', 'монументы и памятники', 'интересные места', 'памятники']",Екатеринбург,3h,60.578514,56.835789
159,159,Q4174314,Екатеринбургский завод,"['историческая архитектура', 'архитектура', 'интересные места', 'другие здания и сооружения']",Екатеринбург,3h,60.60577,56.836639
160,160,Q4476791,Уральский турбинный завод,"['другие', 'неклассифицированные объекты', 'интересные места', 'исторические объекты']",Екатеринбург,3h,60.64011,56.877754
161,161,Q4477566,Усадьба Железнова,"['архитектура', 'историческая архитектура', 'интересные места', 'усадьбы']",Екатеринбург,3h,60.612778,56.826111
162,162,Q27890562,Усадьба ротмистра Переяславцева,"['архитектура', 'историческая архитектура', 'интересные места', 'усадьбы']",Екатеринбург,3h,60.611946,56.836205
163,163,Q97591769,Комплекс штаба военного округа,"['историческая архитектура', 'архитектура', 'интересные места', 'другие здания и сооружения']",Екатеринбург,3h,60.624306,56.841331
164,164,Q1851014,Уральский государственный университет имени А. М. Горького,"['историческая архитектура', 'архитектура', 'интересные места', 'другие здания и сооружения', 'образование', 'университеты']",Екатеринбург,3h,60.616798,56.840302
165,165,Q1938341,Уральский государственный технический университет,"['историческая архитектура', 'архитектура', 'интересные места', 'другие здания и сооружения', 'образование', 'университеты']",Екатеринбург,3h,60.654282,56.844051
166,166,Q4365466,Площадь 1-й Пятилетки,"['культурный', 'городская среда', 'интересные места', 'площади']",Екатеринбург,3h,60.592091,56.88612
167,167,Q4477575,Усадьба Тарасова,"['архитектура', 'историческая архитектура', 'интересные места', 'усадьбы']",Екатеринбург,3h,60.606667,56.839722
168,168,Q19615085,Дом Артистов,"['историческая архитектура', 'архитектура', 'интересные места', 'другие здания и сооружения']",Екатеринбург,3h,60.614166,56.839169
169,169,Q27888113,Дом Э. Ф. Филитц,"['историческая архитектура', 'архитектура', 'интересные места', 'другие здания и сооружения']",Екатеринбург,3h,60.620441,56.833843
170,170,Q27890571,Здание пансиона и церкви Святой Магдалины при первой женской гимназии,"['другие', 'неклассифицированные объекты', 'интересные места', 'исторические объекты']",Екатеринбург,3h,60.610462,56.837254
171,171,Q55413263,Дом Бревновых,"['историческая архитектура', 'архитектура', 'интересные места', 'другие здания и сооружения']",Екатеринбург,3h,60.569229,56.839493
172,172,Q56210596,Дом Маева,"['историческая архитектура', 'архитектура', 'интересные места', 'другие здания и сооружения']",Екатеринбург,3h,60.613888,56.843056
173,173,Q108196461,Дом Промышленности,"['историческая архитектура', 'архитектура', 'интересные места', 'другие здания и сооружения']",Екатеринбург,3h,60.620193,56.837139
174,174,Q108406301,Дом Степанова,"['историческая архитектура', 'архитектура', 'интересные места', 'другие здания и сооружения']",Екатеринбург,3h,60.606934,56.835983
175,175,Q4240385,Крестовоздвиженская церковь,"['религия', 'церкви', 'интересные места', 'восточные ортодоксальные церкви']",Екатеринбург,3h,60.622898,56.831982
176,176,Q4411412,Свято-Никольский храм,"['религия', 'церкви', 'интересные места', 'другие церкви']",Екатеринбург,3h,60.595821,56.826569
177,177,Q4504106,Центральная городская библиотека им. А. И. Герцена,"['историческая архитектура', 'архитектура', 'интересные места', 'другие здания и сооружения']",Екатеринбург,3h,60.612167,56.821865
178,178,Q28381390,Дом Гайдара,"['историческая архитектура', 'архитектура', 'интересные места', 'другие здания и сооружения']",Екатеринбург,3h,60.591591,56.845341
179,179,Q50359307,Дом дворянки Е. О. Селивановой,"['другие', 'неклассифицированные объекты', 'интересные места', 'исторические объекты']",Екатеринбург,3h,60.609085,56.840805
180,180,Q55210808,Дом связи,"['историческая архитектура', 'архитектура', 'интересные места', 'другие здания и сооружения']",Екатеринбург,3h,60.608856,56.839352
181,181,W129207551,Церковь Никиты Великомученика,"['религия', 'церкви', 'интересные места', 'восточные ортодоксальные церкви']",Владимир,3h,40.397797,56.130745
182,182,R7140571,Авиамеханический колледж,"['архитектура', 'историческая архитектура', 'интересные места', 'другие здания и сооружения', 'образование']",Владимир,3h,40.387318,56.126278
183,183,R5606302,Собор Успения Пресвятой Богородицы,"['религия', 'соборы', 'церкви', 'интересные места', 'восточные ортодоксальные церкви']",Владимир,3h,40.409214,56.127438
184,184,W131632302,Троицкая церковь,"['религия', 'церкви', 'интересные места', 'восточные ортодоксальные церкви']",Владимир,3h,40.396076,56.126453
185,185,N1923952002,Дом-музей Столетовых,"['биографические музеи', 'исторические дома музеи', 'культурный', 'музеи', 'интересные места', 'исторические музеи']",Владимир,3h,40.413654,56.132446
186,186,W131632312,Исторический музей,"['культурный', 'музеи', 'интересные места', 'исторические музеи']",Владимир,3h,40.410965,56.130333
187,187,W173146726,Князь-Владимирская церковь,"['религия', 'церкви', 'интересные места', 'восточные ортодоксальные церкви']",Владимир,3h,40.436531,56.14286
188,188,R5587112,Владимирский академический областной драматический театр,"['культурный', 'театры и развлечения', 'интересные места', 'другие театры']",Владимир,3h,40.396076,56.125618
189,189,R7209239,Здание Присутственных мест Палаты,"['культурный', 'музеи', 'интересные места', 'художественные галереи']",Владимир,3h,40.41021,56.128372
190,190,R5587113,Бывшая водонапорная башня,"['башни', 'архитектура', 'интересные места', 'водяные башни']",Владимир,3h,40.398781,56.125111
191,191,W163195444,Костел Святого Розария Пресвятой Девы Марии Римско-Католической Церкви,"['религия', 'церкви', 'интересные места', 'католические церкви']",Владимир,3h,40.394875,56.124916
192,192,W129295802,Дмитриевский собор,"['религия', 'соборы', 'церкви', 'интересные места', 'восточные ортодоксальные церкви']",Владимир,3h,40.410942,56.129208
193,193,W146322037,Богородице-Рождественский мужской монастырь,"['религия', 'монастыри', 'интересные места']",Владимир,3h,40.414005,56.131298
194,194,R5471545,Успенский Княгинин монастырь,"['религия', 'монастыри', 'интересные места']",Владимир,3h,40.398716,56.131477
195,195,N1905368022,Золотые ворота,"['архитектура', 'башни', 'фортификационные сооружения', 'исторические', 'музеи', 'другие музеи', 'другие башни', 'укрепленные башни', 'историческая архитектура', 'защитные стены', 'монументы и памятники', 'культурный', 'интересные места', 'памятники', 'триумфальные арки']",Владимир,3h,40.397278,56.126831
196,196,Q240549,Владимирский централ,"['историческая архитектура', 'архитектура', 'интересные места', 'другие здания и сооружения', 'тюрьма']",Владимир,3h,40.432663,56.141544
197,197,Q4113277,Владимирский государственный гуманитарный университет,"['историческая архитектура', 'архитектура', 'интересные места', 'другие здания и сооружения', 'образование', 'университеты']",Владимир,3h,40.379169,56.146389
198,198,Q19906501,Владимирское духовное училище,"['историческая архитектура', 'архитектура', 'интересные места', 'другие здания и сооружения', 'образование']",Владимир,3h,40.410999,56.1366
199,199,Q838264,Белокаменные памятники Владимира и Суздаля,"['историческая архитектура', 'архитектура', 'интересные места', 'другие здания и сооружения']",Владимир,3h,40.416698,56.150002
200,200,Q4113284,Владимирский планетарий,"['планетарии', 'религия', 'церкви', 'культурный', 'музеи', 'интересные места', 'другие церкви']",Владимир,3h,40.411942,56.130829
201,201,Q19916149,Храм Казанской иконы Божией Матери,"['религия', 'другие храмы', 'интересные места']",Владимир,3h,40.363838,56.120659
202,202,Q21639718,Здание городской думы,"['историческая архитектура', 'архитектура', 'интересные места', 'другие здания и сооружения']",Владимир,3h,40.406441,56.128639
203,203,N3880871297,Музей ложки,"['культурный', 'музеи', 'детские музеи', 'интересные места', 'исторические музеи', 'художественные галереи']",Владимир,3,40.40321,56.127506
204,204,R2322452,Князь-Владимирское кладбище,"['кладбища', 'исторические', 'места захоронений', 'интересные места']",Владимир,3,40.434685,56.143505
205,205,N3842308198,Владимирская митрополия,"['фортификационные сооружения', 'исторические', 'интересные места', 'замки']",Владимир,3,40.414703,56.131302
206,206,N1888417126,Владимиро-Суздальский музей-заповедник (центральный офис),"['культурный', 'музеи', 'природные', 'интересные места', 'природные заповедники', 'другие природоохранные зоны', 'музеи под открытым небом']",Владимир,3,40.409889,56.130569
207,207,Q4113251,Владимирская духовная семинария,"['религия', 'другие храмы', 'интересные места']",Владимир,3,40.413074,56.131168
208,208,Q18331756,Армянская церковь Владимира,"['религия', 'церкви', 'интересные места', 'другие церкви']",Владимир,3,40.456497,56.154667
209,209,U4133,Мемориальная мастерская им. Французова,"['музеи', 'культурный', 'интересные места', 'местные музеи', 'художественные галереи']",Владимир,2,40.398632,56.126774
210,210,U4152,Выставочный зал,"['музеи', 'культурный', 'интересные места', 'художественные галереи']",Владимир,2,40.413624,56.132153
211,211,U6301,Музей хрусталя и стекла XVIII-XXI веков,"['музеи', 'культурный', 'интересные места', 'художественные галереи']",Владимир,2,40.396053,56.126419
212,212,U6303,Музей непридуманных историй,"['музеи', 'культурный', 'детские музеи', 'интересные места', 'исторические музеи', 'художественные галереи']",Владимир,2,40.401737,56.13081
213,213,U6674,Военно-историческая экспозиция (Золотые ворота),"['исторические', 'места захоронений', 'интересные места', 'военные памятные места']",Владимир,2,40.397057,56.126881
214,214,U6744,Виртуальный концертный зал,"['театры и развлечения', 'культурный', 'интересные места', 'музыкальные места']",Владимир,2,40.384937,56.121613
215,215,U6902,Центр классической музыки,"['театры и развлечения', 'культурный', 'интересные места', 'музыкальные места']",Владимир,2,40.402538,56.127754
216,216,U6903,Концертный зал им. С. И. Танеева,"['театры и развлечения', 'культурный', 'интересные места', 'музыкальные места']",Владимир,2,40.384872,56.121651
217,217,U6956,Концертно-спортивный комплекс Art Hall,"['театры и развлечения', 'культурный', 'интересные места', 'другие театры']",Владимир,2,40.431717,56.151306
218,218,U7274,Фольклорно-этнографический театр Кресень,"['театры и развлечения', 'культурный', 'интересные места', 'другие театры']",Владимир,2,40.349018,56.110313
219,219,U7293,Владимирский областной театр кукол,"['кукольные театры', 'театры и развлечения', 'культурный', 'интересные места']",Владимир,2,40.403103,56.129936
220,220,U7573,Парк Дружба,"['сады и парки', 'городская среда', 'культурный', 'интересные места']",Владимир,2,40.334717,56.107971
221,221,N1412650394,Музей Старый Владимир,"['башни', 'архитектура', 'культурный', 'музеи', 'интересные места', 'другие музеи', 'другие башни']",Владимир,2,40.398754,56.125145
222,222,N6514072286,Музей Огни Владимира,"['культурный', 'музеи', 'детские музеи', 'интересные места', 'исторические музеи']",Владимир,2,40.400143,56.127617
223,223,N1991927689,Театр фольклора «Разгуляй»,"['культурный', 'театры и развлечения', 'интересные места', 'другие театры']",Владимир,2,40.4865,56.16814
224,224,N5404094893,Музей науки и человека ЭВРИКА,"['культурный', 'музеи', 'научные музеи', 'детские музеи', 'интересные места', 'музеи науки и технологии', 'другие технологические музеи']",Владимир,2,40.400223,56.127617
225,225,N5236023127,Музей Старая аптека,"['культурный', 'музеи', 'интересные места', 'исторические музеи']",Владимир,2,40.402435,56.127205
226,226,N1794469857,Музей природы,"['культурный', 'музеи', 'интересные места', 'другие музеи']",Владимир,2,40.397766,56.137833
227,227,N3814558074,Галерея Владимирской школы живописи,"['культурный', 'музеи', 'интересные места', 'художественные галереи']",Владимир,2,40.402302,56.128124
228,228,R5482895,Памятник природы Лесной парк Дружба,"['городская среда', 'сады и парки', 'культурный', 'природные', 'интересные места', 'природные заповедники', 'другие природоохранные зоны']",Владимир,2,40.303032,56.103119
229,229,W130740964,Дом дворянина А.А. Протасьева,"['другие', 'неклассифицированные объекты', 'интересные места', 'туристический объект']",Владимир,1,40.38599,56.131748
230,230,N2470904637,Монумент в честь 850-летия города Владимира,"['исторические', 'монументы и памятники', 'интересные места', 'памятники']",Владимир,1,40.30917,56.107956
231,231,N6089565000,Памятник Танкистам,"['исторические', 'монументы и памятники', 'интересные места', 'памятники']",Владимир,1,40.317623,56.147251
232,232,N5370927217,Мемориал погибшим на фронтах ВОВ,"['исторические', 'места захоронений', 'интересные места', 'военные памятные места']",Владимир,1,40.362949,56.111187
233,233,W196837615,Христианская Евангельская Церковь Часовня у Голгофы,"['религия', 'церкви', 'интересные места', 'другие церкви']",Владимир,1,40.357697,56.116772
234,234,N1947521913,Памятник П.И. Чайковскому,"['исторические', 'монументы и памятники', 'культурный', 'городская среда', 'интересные места', 'скульптуры', 'памятники']",Владимир,1,40.363274,56.122078
235,235,N3817669434,Дерево дружбы,"['исторические', 'монументы и памятники', 'интересные места', 'памятники']",Владимир,1,40.362888,56.120129
236,236,N1012304895,Вечный огонь,"['исторические', 'места захоронений', 'интересные места', 'военные памятные места']",Владимир,1,40.364002,56.120033
237,237,N3807490548,Скульптура Бобёр,"['культурный', 'городская среда', 'интересные места', 'скульптуры']",Владимир,1,40.37801,56.121078
238,238,N3681323129,Скульптура Венера на заре,"['культурный', 'городская среда', 'интересные места', 'скульптуры']",Владимир,1,40.383736,56.122677
239,239,N2041833437,Фонтан Каменная горка,"['фонтаны', 'культурный', 'городская среда', 'интересные места']",Владимир,1,40.377995,56.147411
240,240,N3786642037,Скульптура Наука,"['исторические', 'монументы и памятники', 'культурный', 'городская среда', 'интересные места', 'скульптуры', 'памятники']",Владимир,1,40.380108,56.146404
241,241,N2076499942,Мемориал погибшим в ВОВ,"['исторические', 'места захоронений', 'интересные места', 'военные памятные места']",Владимир,1,40.387913,56.126659
242,242,N3807490551,Скульптура Дева Мария,"['культурный', 'городская среда', 'интересные места', 'скульптуры']",Владимир,1,40.394699,56.125015
243,243,N3126700595,Скульптура Владимирская вишня,"['культурный', 'городская среда', 'интересные места', 'скульптуры']",Владимир,1,40.399315,56.12534
244,244,N3809171188,Памятник Пожарный автомобиль-лестница,"['исторические', 'монументы и памятники', 'интересные места', 'памятники']",Владимир,1,40.400349,56.126213
245,245,N2092144362,Оборонительный земляной вал древнего Владимира,"['исторические', 'монументы и памятники', 'интересные места', 'памятники']",Владимир,1,40.397152,56.126568
246,246,N1792890919,Памятник Лебедеву-Полянскому П.И.,"['исторические', 'монументы и памятники', 'интересные места', 'памятники']",Владимир,1,40.396961,56.127117
247,247,N1749443739,Козлов вал,"['смотровые площадки', 'другие', 'интересные места']",Владимир,1,40.397335,56.126492
248,248,N3787578355,Скульптура Cтаринный велосипед,"['культурный', 'городская среда', 'интересные места', 'инсталляции']",Владимир,1,40.400295,56.127403
249,249,N3809171189,Памятник таксе,"['культурный', 'городская среда', 'интересные места', 'скульптуры']",Владимир,1,40.400517,56.127426
250,250,N4076959103,Скульпура Мальчик с рогаткой,"['исторические', 'монументы и памятники', 'интересные места', 'памятники']",Владимир,1,40.400688,56.127682
251,251,N2050123028,Театр Фавор,"['культурный', 'театры и развлечения', 'интересные места', 'другие театры']",Владимир,1,40.401272,56.127522
252,252,N4440238992,Скульптура Филёр и шалопай,"['культурный', 'городская среда', 'интересные места', 'скульптуры']",Владимир,1,40.401573,56.126457
253,253,N3891350370,Летний читальный зал Библиотечная лужайка,"['культурный', 'городская среда', 'интересные места', 'инсталляции']",Владимир,1,40.402336,56.126423
254,254,N3788208162,Скульптура Художник на пленэре,"['культурный', 'городская среда', 'интересные места', 'скульптуры']",Владимир,1,40.402805,56.127064
255,255,N3788208161,Скульптура Аптекарь,"['культурный', 'городская среда', 'интересные места', 'скульптуры']",Владимир,1,40.402309,56.127251
256,256,N1792867051,Памятник Княгине Ольге,"['исторические', 'монументы и памятники', 'интересные места', 'памятники']",Владимир,1,40.392128,56.129597
257,257,N1436958331,Мемориал воинам-интернационалистам,"['исторические', 'места захоронений', 'интересные места', 'военные памятные места']",Владимир,1,40.392071,56.131077
258,258,N1435900427,Памятник Гоголю,"['исторические', 'монументы и памятники', 'интересные места', 'памятники']",Владимир,1,40.397076,56.129631
259,259,N4499063760,Домовая церковь Елисаветы Феодоровны,"['религия', 'другие храмы', 'интересные места']",Владимир,1,40.403072,56.134537
260,260,N3663765701,Макет ракеты-носителя Союз-ТМ,"['культурный', 'городская среда', 'интересные места', 'инсталляции']",Владимир,1,40.397129,56.139618
261,261,N4225763986,Экспозиция Чернобыль - трагедия XX века,"['культурный', 'музеи', 'интересные места', 'другие музеи']",Владимир,1,40.406498,56.135403
262,262,N569740253,Памятник крестителям Владимирской земли,"['исторические', 'монументы и памятники', 'культурный', 'городская среда', 'интересные места', 'скульптуры', 'памятники']",Владимир,1,40.407963,56.125759
263,263,N3796718136,Крест в честь 2000-летия Рождества Христова,"['исторические', 'монументы и памятники', 'интересные места', 'памятники']",Владимир,1,40.408882,56.127674
264,264,N3833187861,Церковь Александра Невского при мужской гимназии,"['религия', 'другие храмы', 'интересные места']",Владимир,1,40.408161,56.129822
265,265,N3842308204,Храм святого Феофана Затворника при Архиерейском кабинете,"['религия', 'другие храмы', 'интересные места']",Владимир,1,40.413052,56.131226
266,266,N2423762708,Притвор-часовня в честь иконы Божией Матери Иверская,"['религия', 'другие храмы', 'интересные места']",Владимир,1,40.413078,56.131516
267,267,N3789421242,Ивановский вал,"['исторические места', 'исторические', 'интересные места', 'исторические поселения']",Владимир,1,40.412052,56.13422
268,268,N1766460255,Церковь Рождества Христова,"['религия', 'другие храмы', 'интересные места']",Владимир,1,40.413273,56.131645
269,269,N1766460251,Надвратная церковь святого князя Александра Невского,"['религия', 'другие храмы', 'интересные места']",Владимир,1,40.413509,56.131752
270,270,N1766460261,"Часовня святого Николая Чудотворца, архиепископа Мирликийского","['религия', 'другие храмы', 'интересные места']",Владимир,1,40.413628,56.131805
271,271,N3807490550,Мемориал владимирским железнодорожникам погибшим в ВОВ,"['исторические', 'места захоронений', 'интересные места', 'военные памятные места']",Владимир,1,40.42149,56.130661
272,272,N552713468,Памятник Н.А. Некрасову,"['исторические', 'монументы и памятники', 'интересные места', 'памятники']",Ярославль,3h,39.892933,57.632572
273,273,W125448768,Российский государственный академический театр драмы имени Федора Волкова,"['культурный', 'театры и развлечения', 'интересные места', 'другие театры']",Ярославль,3h,39.884796,57.627155
274,274,W239408057,Ярославская соборная мечеть,"['религия', 'другие храмы', 'интересные места']",Ярославль,3h,39.875633,57.636059
275,275,W44896191,Церковь Спаса на городу,"['религия', 'церкви', 'интересные места', 'восточные ортодоксальные церкви']",Ярославль,3h,39.895622,57.622604
276,276,W617228287,Спасо-Преображенский монастырь,"['религия', 'монастыри', 'интересные места']",Ярославль,3h,39.889442,57.621704
277,277,W45013546,Спасо-Преображенский собор,"['религия', 'соборы', 'монастыри', 'интересные места']",Ярославль,3h,39.889511,57.621506
278,278,W92405439,Церковь Николая Чудотворца,"['религия', 'церкви', 'интересные места', 'другие церкви', 'восточные ортодоксальные церкви']",Ярославль,3h,39.865314,57.61031
279,279,W101704727,Владимирская церковь,"['религия', 'церкви', 'интересные места', 'другие церкви']",Ярославль,3h,39.852306,57.625523
280,280,W173960067,Церковь Благовещения,"['религия', 'церкви', 'интересные места', 'другие церкви']",Ярославль,3h,39.891327,57.634312
281,281,W48274072,Часовня Александра Невского,"['религия', 'церкви', 'интересные места', 'другие церкви']",Ярославль,3h,39.891064,57.625462
282,282,W76701664,Храм Великомученика Никиты,"['религия', 'церкви', 'интересные места', 'другие церкви']",Ярославль,3h,39.868584,57.623791
283,283,W45013537,Богоявленская башня,"['башни', 'религия', 'архитектура', 'фортификационные сооружения', 'исторические', 'церкви', 'интересные места', 'другие башни', 'укрепленные башни', 'другие церкви']",Ярославль,3h,39.887489,57.620663
284,284,W834800265,Колокольня Никитского прихода,"['башни', 'религия', 'архитектура', 'церкви', 'интересные места', 'другие башни', 'другие церкви']",Ярославль,3h,39.868759,57.623619
285,285,W45013536,Церковь Богоявления Господня,"['религия', 'церкви', 'интересные места', 'восточные ортодоксальные церкви']",Ярославль,3h,39.88644,57.621643
286,286,W95564000,Воинское мемориальное кладбище,"['кладбища', 'исторические', 'места захоронений', 'интересные места', 'военные памятные места']",Ярославль,3h,39.830746,57.631962
287,287,N1361341279,Кирило-Афанасиевский мужской монастырь,"['религия', 'монастыри', 'интересные места']",Ярославль,3h,39.895275,57.625294
288,288,W123291538,Крестоборогодская церковь,"['религия', 'церкви', 'интересные места', 'другие церкви']",Ярославль,3h,39.849354,57.578876
289,289,W95943760,Церковь Николы в Меленках,"['религия', 'церкви', 'интересные места', 'восточные ортодоксальные церкви']",Ярославль,3h,39.834522,57.609947
290,290,W44898055,Музей истории города Ярославля,"['культурный', 'музеи', 'детские музеи', 'интересные места', 'исторические музеи', 'местные музеи']",Ярославль,3h,39.898617,57.627079
291,291,W462014550,Спасо-Афанасиевский Ярославский монастырь,"['религия', 'монастыри', 'интересные места']",Ярославль,3h,39.895222,57.62537
292,292,W140038051,Николо-Тропинская церковь,"['религия', 'архитектура', 'историческая архитектура', 'церкви', 'интересные места', 'разрушенные объекты', 'другие церкви']",Ярославль,3h,39.891727,57.613121
293,293,W44899216,Волжская башня,"['башни', 'архитектура', 'интересные места', 'другие башни']",Ярославль,3h,39.901684,57.625027
294,294,W82251166,Сретенский храм,"['религия', 'церкви', 'интересные места', 'восточные ортодоксальные церкви']",Ярославль,3h,39.888905,57.625244
295,295,N4997897721,Знаменская церковь,"['башни', 'религия', 'архитектура', 'церкви', 'интересные места', 'другие башни', 'другие церкви']",Ярославль,3h,39.885262,57.625439
296,296,W44899213,Музей древнерусского искусства,"['культурный', 'музеи', 'интересные места', 'художественные галереи']",Ярославль,3h,39.902294,57.623344
297,297,W136184765,Власьевская (Знаменская) башня,"['башни', 'религия', 'архитектура', 'церкви', 'интересные места', 'другие башни', 'другие церкви']",Ярославль,3h,39.884975,57.625359
298,298,N1234995463,Ярославский музей-заповедник,"['культурный', 'музеи', 'археологические музеи', 'интересные места', 'исторические музеи', 'музеи под открытым небом', 'художественные галереи']",Ярославль,3h,39.89003,57.620876
299,299,W92405434,Церковь Иоанна Предтечи в Толчкове,"['религия', 'церкви', 'интересные места', 'восточные ортодоксальные церкви']",Ярославль,3h,39.856861,57.610909
300,300,W271115386,Толгский монастырь,"['религия', 'монастыри', 'интересные места']",Ярославль,3h,39.82869,57.697281
301,301,W183940992,Храм Зосимы и Савватия,"['религия', 'церкви', 'интересные места', 'восточные ортодоксальные церкви']",Ярославль,3h,39.903271,57.636955
302,302,W187948282,Храм Архангела Михаила,"['религия', 'церкви', 'интересные места', 'восточные ортодоксальные церкви']",Ярославль,3h,39.764675,57.738789
303,303,W44900364,Церковь Николы Рублёного,"['религия', 'церкви', 'интересные места', 'восточные ортодоксальные церкви']",Ярославль,3h,39.898258,57.622509
304,304,N4618248825,Казанский женский монастырь,"['религия', 'монастыри', 'интересные места']",Ярославль,3h,39.886944,57.627979
305,305,W107535735,Церковь Софии Премудрости Божией в Савино,"['религия', 'другие храмы', 'интересные места']",Ярославль,3h,39.919182,57.623425
306,306,W92405450,Федоровский собор,"['религия', 'церкви', 'интересные места', 'восточные ортодоксальные церкви']",Ярославль,3h,39.865444,57.609676
307,307,W150447107,Церковь Николая Надеина,"['религия', 'церкви', 'музеи', 'культурный', 'интересные места', 'восточные ортодоксальные церкви', 'исторические музеи']",Ярославль,3h,39.896023,57.628815
308,308,W44896201,Церковь Ильи Пророка,"['религия', 'церкви', 'интересные места', 'восточные ортодоксальные церкви']",Ярославль,3h,39.894485,57.626812
309,309,W101935938,Церковь Вознесения Господня,"['религия', 'церкви', 'интересные места', 'восточные ортодоксальные церкви']",Ярославль,3h,39.871132,57.626507
310,310,W150378447,Церковь Михаила Архангела,"['религия', 'церкви', 'интересные места', 'восточные ортодоксальные церкви']",Ярославль,3h,39.89259,57.622082
311,311,N7932069485,Дом Болконского,"['архитектура', 'историческая архитектура', 'интересные места', 'другие здания и сооружения']",Ярославль,3h,39.900871,57.625092
312,312,N552713459,Памятник Леониду Николаевичу Трефолеву,"['исторические', 'монументы и памятники', 'интересные места', 'памятники']",Ярославль,3h,39.888012,57.62759
313,313,W87498821,Музей-заповедник Н. А. Некрасова Карабиха,"['национальные музеи', 'биографические музеи', 'архитектура', 'музеи', 'природные', 'природные заповедники', 'усадьбы', 'другие природоохранные зоны', 'музеи под открытым небом', 'историческая архитектура', 'культурный', 'интересные места', 'исторические музеи', 'художественные галереи']",Ярославль,3h,39.756893,57.50919
314,314,Q19908952,Демидовский сад,"['сады и парки', 'культурный', 'городская среда', 'интересные места']",Ярославль,3h,39.89724,57.625038
315,315,Q1189431,Мемориальный дом-музей М. Богдановича,"['биографические музеи', 'музеи', 'культурный', 'интересные места']",Ярославль,3h,39.870735,57.624523
316,316,Q4110247,Вечный огонь,"['исторические', 'монументы и памятники', 'интересные места', 'памятники']",Ярославль,3h,39.898975,57.623791
317,317,Q4151348,Губернаторский дом,"['историческая архитектура', 'архитектура', 'интересные места', 'другие здания и сооружения']",Ярославль,3h,39.897221,57.628334
318,318,Q4538913,Ярославский филиал Военно-космической академии имени А. Ф. Можайского,"['другие', 'неклассифицированные объекты', 'интересные места', 'исторические объекты']",Ярославль,3h,39.877613,57.607079
319,319,Q4343495,Памятник жертвам белогвардейского мятежа,"['исторические', 'монументы и памятники', 'интересные места', 'памятники']",Ярославль,3h,39.89571,57.625862
320,320,Q4379291,Приход Воздвижения Святого Креста,"['религия', 'церкви', 'интересные места', 'другие церкви']",Ярославль,3h,39.88435,57.637329
321,321,Q13668162,Петропавловский парк,"['сады и парки', 'культурный', 'городская среда', 'интересные места']",Ярославль,3h,39.845001,57.599445
322,322,Q25394333,Мост Волжские Ворота,"['мосты', 'архитектура', 'интересные места', 'другие мосты']",Ярославль,3h,39.90126,57.625069
323,323,Q56312986,Церковь Рождества Христова,"['религия', 'другие храмы', 'интересные места']",Ярославль,3h,39.881786,57.711025
324,324,Q4165529,Дом муз,"['музеи', 'культурный', 'интересные места', 'музеи моды', 'художественные галереи']",Ярославль,3h,39.869602,57.624615
325,325,Q4525185,Школа № 33 имени Карла Маркса,"['историческая архитектура', 'архитектура', 'интересные места', 'другие здания и сооружения', 'образование', 'школы']",Ярославль,3h,39.881363,57.628075
326,326,Q4538931,Ярославское художественное училище,"['историческая архитектура', 'архитектура', 'интересные места', 'другие здания и сооружения', 'образование']",Ярославль,3h,39.876846,57.609852
327,327,Q4085572,Беседка на Волжской набережной,"['историческая архитектура', 'архитектура', 'интересные места', 'другие здания и сооружения']",Ярославль,3h,39.896305,57.629944
328,328,Q4146509,Гостиный двор,"['историческая архитектура', 'архитектура', 'интересные места', 'другие здания и сооружения']",Ярославль,3h,39.886112,57.624443
329,329,Q4204534,Исторический центр Ярославля,"['исторические', 'исторические места', 'интересные места', 'исторические районы']",Ярославль,3h,39.887501,57.623611
330,330,Q4538877,Ярославский дворец молодёжи,"['историческая архитектура', 'архитектура', 'интересные места', 'другие здания и сооружения']",Ярославль,3h,39.867222,57.63625
331,331,Q60851633,Бутусовский посёлок,"['историческая архитектура', 'архитектура', 'интересные места', 'другие здания и сооружения']",Ярославль,3h,39.871456,57.629276
332,332,N3691243291,Музей зарубежного искусства,"['культурный', 'музеи', 'интересные места', 'художественные галереи']",Ярославль,3,39.89579,57.627102
333,333,N964688408,Ярославский художественный музей (Губернаторский дом),"['культурный', 'музеи', 'интересные места', 'художественные галереи']",Ярославль,3,39.897274,57.628376
334,334,W130733596,Ярославский зоопарк,"['городская среда', 'сады и парки', 'культурный', 'музеи', 'детские музеи', 'интересные места', 'зоопарки', 'музеи под открытым небом']",Ярославль,3,39.895737,57.674446
335,335,W95943763,Храм Петра и Павла,"['религия', 'церкви', 'интересные места', 'восточные ортодоксальные церкви']",Ярославль,3,39.8437,57.602531
336,336,W72225050,Леонтьевское кладбище,"['кладбища', 'исторические', 'места захоронений', 'интересные места']",Ярославль,3,39.834396,57.629993
337,337,N7931969085,Памятный знак городам побратимам,"['исторические', 'монументы и памятники', 'интересные места', 'памятники']",Ярославль,3,39.884804,57.625622
338,338,W44899210,Успенский собор,"['религия', 'соборы', 'церкви', 'интересные места', 'восточные ортодоксальные церкви']",Ярославль,3,39.901978,57.622429
339,339,W96530735,Леонтьевская церковь,"['кладбища', 'религия', 'другие храмы', 'исторические', 'места захоронений', 'интересные места']",Ярославль,3,39.834888,57.63068
340,340,W837349639,Храм Ярославской иконы Божией Матери,"['религия', 'церкви', 'интересные места', 'восточные ортодоксальные церкви']",Ярославль,3,39.908268,57.582783
341,341,N3658286110,Музей Музыка и время,"['культурный', 'музеи', 'интересные места', 'другие музеи']",Ярославль,3,39.894951,57.630356
342,342,R2036118,Власьевский сквер,"['городская среда', 'сады и парки', 'культурный', 'интересные места']",Ярославль,3,39.882793,57.626457
343,343,N552713465,Памятник М.А. Богдановичу,"['исторические', 'монументы и памятники', 'интересные места', 'памятники']",Ярославль,3,39.88715,57.632545
344,344,W240658074,Цирк,"['цирки', 'культурный', 'театры и развлечения', 'интересные места']",Ярославль,3,39.865444,57.625584
345,345,W114127277,Часовня Казанской Богоматери,"['религия', 'церкви', 'интересные места', 'другие церкви']",Ярославль,3,39.890251,57.620323
346,346,N965847355,Театр кукол,"['кукольные театры', 'культурный', 'театры и развлечения', 'интересные места']",Ярославль,3,39.876846,57.624577
347,347,W84997561,Старообрядческий храм Иоанна Златоуста в Коровниках,"['религия', 'церкви', 'интересные места', 'другие церкви']",Ярославль,3,39.90596,57.61158
348,348,R6279026,Парк 1000-летия Ярославля,"['городская среда', 'сады и парки', 'культурный', 'интересные места']",Ярославль,3,39.871151,57.616882
349,349,W45846077,Ярославский государственный театр юного зрителя им. В. С. Розова,"['культурный', 'театры и развлечения', 'интересные места', 'детские театры']",Ярославль,3,39.876179,57.624504
350,350,W222984781,Музей Боевой Славы,"['культурный', 'музеи', 'интересные места', 'музеи науки и технологии', 'исторические музеи', 'другие технологические музеи', 'военные музеи']",Ярославль,3,39.831711,57.633209
351,351,Q4157550,Демидовский столп,"['архитектура', 'историческая архитектура', 'интересные места', 'разрушенные объекты']",Ярославль,3,39.897221,57.625038
352,352,Q28056804,Церковь Св. Дмитрия Солунского,"['религия', 'церкви', 'интересные места', 'восточные ортодоксальные церкви']",Ярославль,3,39.88139,57.62167
353,353,Q28058985,Церковь Рождества Христова,"['религия', 'церкви', 'интересные места', 'восточные ортодоксальные церкви']",Ярославль,3,39.89436,57.630562
354,354,Q4320775,Николо-Сковородский монастырь,"['религия', 'архитектура', 'историческая архитектура', 'монастыри', 'интересные места', 'разрушенные объекты']",Ярославль,3,39.842442,57.600094
355,355,Q25389078,Памятник 1000-летию Ярославля,"['исторические', 'монументы и памятники', 'интересные места', 'памятники']",Ярославль,3,39.904823,57.617668
356,356,Q4538885,Ярославский камерный театр,"['театры и развлечения', 'культурный', 'интересные места', 'другие театры']",Ярославль,3,39.8811,57.629101
357,357,Q30913943,Церковь Владимирской иконы Божией Матери,"['религия', 'церкви', 'интересные места', 'восточные ортодоксальные церкви']",Ярославль,3,39.906563,57.611237
358,358,Q19909049,Парк на Стрелке,"['сады и парки', 'культурный', 'городская среда', 'интересные места']",Ярославль,3,39.902702,57.622063
359,359,Q4361245,Петровский монастырь,"['религия', 'монастыри', 'интересные места']",Ярославль,3,39.897964,57.642868
360,360,W77730252,Автомеханический техникум,"['архитектура', 'историческая архитектура', 'интересные места', 'другие здания и сооружения', 'образование']",Ярославль,2h,39.850819,57.641842
361,361,N1050096042,Памятник М.В. Фрунзе,"['исторические', 'монументы и памятники', 'интересные места', 'памятники']",Ярославль,2h,39.874001,57.599037
362,362,N552713450,Памятник Ф. Г. Волкову,"['исторические', 'монументы и памятники', 'городская среда', 'культурный', 'интересные места', 'скульптуры', 'памятники']",Ярославль,2h,39.883522,57.626495
363,363,N4928995381,Памятник Ф.И. Толбухину,"['исторические', 'монументы и памятники', 'интересные места', 'памятники']",Ярославль,2h,39.858017,57.632484
364,364,N966584280,Памятник Г.М. Димитрову,"['исторические', 'монументы и памятники', 'интересные места', 'памятники']",Ярославль,2h,39.873543,57.634766
365,365,Q2494278,Тимерёвский археологический комплекс,"['исторические', 'исторические места', 'археология', 'интересные места', 'другие археологические объекты', 'исторические поселения']",Ярославль,2h,39.741951,57.53627
366,366,Q97161882,Михайловские курганы,"['исторические', 'археология', 'интересные места', 'другие археологические объекты']",Ярославль,2h,39.747612,57.765659
367,367,Q4091101,Больница имени Н. В. Соловьёва,"['историческая архитектура', 'архитектура', 'интересные места', 'другие здания и сооружения']",Ярославль,2h,39.86388,57.63892
368,368,U3739,Музей занимательных наук Эйнштейна,"['музеи', 'культурный', 'научные музеи', 'детские музеи', 'интересные места', 'музеи науки и технологии', 'другие технологические музеи']",Ярославль,2,39.8381,57.670315
369,369,U3885,Дом-музей Максима Богдановича,"['биографические музеи', 'музеи', 'культурный', 'интересные места']",Ярославль,2,39.870636,57.624523
370,370,U4106,Выставочный зал имени Нужина,"['музеи', 'культурный', 'интересные места', 'местные музеи', 'художественные галереи']",Ярославль,2,39.880016,57.625282
